Name,Address,Operation Hour,Latitude,Longitude
Subway Menara UOA Bangsar,"Jalan Bangsar Utama 1, Unit 1-2-G, Menara UOA Bangsar, Kuala Lumpur, 59000","Monday - Sunday, 8:00 AM - 8:00 PM",3.128099,101.678678
Subway One Utama,"318A One Utama, Lower Ground Floor, New Wing, 1 Utama Shopping Centre, Petaling Jaya, 47800","0800 - 2200 (Sun - Thur),0800 - 2230 (Fri & Sat)",3.151251,101.615116
Subway Jln Pinang,"G9, Wisma UOA II, 19, Jalan Pinang, Kuala Lumpur, 50450","Monday - Saturday, 8:00 AM – 9:00PM,Sunday, 11:30 AM – 6:30PM",3.152705,101.712034
Subway UOA Damansara,"Unit 50-G-5, Ground Floor, Wisma UOA Damansara, No. 50, Jalan Dungun, Kuala Lumpur, 50490","Monday - Saturday, 8:00 AM – 8:30PM,Sunday, Closed",3.151729,101.666006
Subway The Mines,"Lot L1-93, Level 1, Mines Shopping Fair,Jln Dulang, Mines Resort City, Seri Kembangan, 43300","Monday - Sunday, 10:00 AM - 10:00 PM",3.027692,101.718905
Subway Mont Kiara,"E-01-16 ,Block E, Plaza Mont Kiara, 2 Jalan Kiara, Mont Kiara, Kuala Lumpur, 50480","Monday - Sunday, 10:00 AM - 10:00 PM",3.165686,101.651956
Subway Amcorp Mall,"(Canopy Area), Lot KG-05, 18 Jln Persiaran, Ground Floor, Barat, Petaling Jaya, 46050","Monday - Friday, 9:00 AM – 10:00PM,Saturday & Sunday, 10:00 AM – 10:00PM",3.104774,101.647341
Subway Avenue K,"Lot UC-8 & 9, Upper Concourse Level, Avenue K, No. 156, Jalan Ampang, Kuala Lumpur, 50450","Monday - Sunday, 8:00 AM - 10:00 PM",3.159477,101.713515
Subway Center Point,"Lebuh Bandar Utama, Center Point, Lot G104B Gr Floor, Petaling Jaya, 47800","Monday, 8:00 AM – 10:00PM,Tuesday - Wednesday, 8:00 AM – 10:30PM,Thursday, 8:00 AM – 9:00PM,Friday & Saturday, 8:00 AM – 11:00PM,Sunday, 8:00 AM – 10:30PM",3.136096,101.607964
Subway Shell Sunway Mentari,"1, Jalan PJS 8/9 (Shell) Bandar Sunway, 46000 Selangor","Monday - Sunday, Open 24 Hours",3.079525,101.609623
Subway Berjaya Times Square,"Lot 03-103, 3rd Floor, Berjaya Times Square, No. 1, Jalan Imbi, Kuala Lumpur, 55100","Monday - Sunday, 10:00 AM - 10:00 PM",3.142198,101.710551
Subway Capsquare,"Ground Floor, Unit 01-02, Cap Square Tower, 10 Jalan Munshi Abdullah, Kuala Lumpur, 50100","Monday - Saturday, 8:00 AM – 9:00PM,Sunday, Closed",3.154416,101.698823
Subway Aeon AU2,"Aeon AU2 Shopping Center, 6, Jln 37/36 Taman Setiawangsa, Lot G49, Taman Keramat, Kuala Lumpur, 54200","Monday - Sunday, 10:00 AM - 10:00 PM",3.177185,101.750558
Subway Lotus Setia Alam (LSA),"G14 Grd Floor Tesco Setia Alam, No.2 Jalan Setia Prima, U13/3 Seksyen 13, Shah Alam, 40170","Monday - Sunday, 10:00 AM - 10:00 PM",3.099881,101.444419
Subway Aeon Big Subang,"F1-23 AEON BIG, Level 1 No.3 Jalan SS 16/1,Subang Jaya, Selangor 47500","Monday - Sunday, 9:00 AM - 10:00 PM",3.082580,101.588016
Subway University Malaya,"Faculty of Dentistry, Level 1, Block B, University of Malaya, Kuala Lumpur, 50603","Monday - Friday, 6:30 AM – 10:00PM,Saturday & Sunday, 8:00 AM – 3:00PM",3.121723,101.653684
Subway Jade Hills,"No 40-G, Jalan Jade Hills Utama 1/2, Commerce Village, Jade Hills, 43000 Kajang, Selangor.",,2.994114,101.758669
Subway Wangsa Walk,"Wangsa Ave, Bandar Wangsa Maju, #9 Jalan Perdana 1, G-52, Wangsa Walk Mall, Kuala Lumpur, 53300","Monday - Sunday, 9:30 AM - 9:30 PM",3.198582,101.742206
Subway TTDI,"Lvl1, Petronas Svs Station TTDI,Lot29395 & 29396, Pinggir Zaaba, Taman Tun Dr Ismail, Kuala Lumpur, 60000","Monday - Sunday, 8:30 AM - 9:00 PM",3.141958,101.625217
Subway Plaza Shah Alam,"Lot No. G 17, Ground Floor, Plaza Shah Alam, Sekysen 9, Shah Alam, 40100","Monday - Sunday, 9:00 AM – 10:00PM,Wednesday, 9:00 AM – 9:00PM",3.084338,101.523317
Subway Taipan,"7A, Jalan USJ 10/1j, Taipan Business Centre, 47620 Subang Jaya, Selangor","Monday - Sunday, 8:00 AM - 8:00 PM",3.047932,101.586015
Subway Menara Aras Jaya,"LG Floor, Menara Bumiputra Commerce, No 11, Jalan Raja Laut, 50350 Kuala Lumpur","Monday - Friday, 8:00 AM – 9:00PM,Saturday & Sunday, 10:00 AM – 7:00PM",3.155606,101.695688
Subway Petronas Ampang Point,"Petronas Gas Station/C-Store, Lot 36904 TT27423, Jalan Air Kolam Lama, Ampang, 68000","Monday - Sunday, 8:30 AM - 9:00 PM",3.160388,101.756010
Subway Tesco Kepong,"Tesco Kepong Village Mall, Lot No. 14, 1st Floor, No. 3 Jalan 7A/62A Bandar Manjalara, Kuala Lumpur, 52200","Monday - Sunday, 10:15 AM - 9:30 PM",3.194423,101.633699
Subway Jalan Ipoh,"No. 447, Jalan Ipoh, Batu 3, Taman Million, 51200 Kuala Lumpur","Monday - Sunday, 8:00 AM - 10:00 PM",3.178158,101.685121
Subway SS7,"#15G Jalan Plumbum R7/R, Pusat Komersial Seksyen 7, Shah Alam, 40000","Monday - Sunday, 8:00 AM - 9:30 PM",3.067989,101.489526
Subway Selayang Mall,"Selayang Mall, GSW .5A, Ground Floor, Batu Caves, 68100","Monday - Sunday, 9:00 AM - 10:00 PM",3.237131,101.643784
Subway Aeon Bukit Tinggi,"AEON Bukit Tinggi Shopping Ctr, No 1 Persiaran Batu Nilam, 1/KS6 Bandar Bukit Tinggi 2, Klang, 41050","Sunday - Thursday, 10:00 AM – 10:00PM,Friday & Saturday, 8:00 AM – 10:30PM",2.994510,101.444207
Subway AEON BIG Puchong,"AEON BIG Shopping Center, Lot No G04 Ground Floor, Lot 4029 Persiaran Selangor, Puchong Utama, 47100","Monday - Sunday, 10:00 AM - 10:00 PM",2.991741,101.615601
Subway Seksyen 13,"Tadisma Business Park, Seksyen 13, 40100 Shah Alam, Selangor",Monday - Sunday (9:30AM - 10:30PM),3.089032,101.546357
Subway Axis Atrium,"Axis Atrium, Lot No. G-3 Ground Floor, Jalan Cempaka, Taman Cempaka Ampang, 68000","Monday - Sunday, 8:00 AM - 9:00 PM",3.136505,101.747491
Subway Taman Prima Saujana,"G-2A-GB, Jalan Prima Saujana 2/D, Taman Prima Saujana, 43000 Kajang, Selangor","Monday - Sunday, 8:00 AM - 10:00 PM",3.008788,101.804503
Subway Aeon Rawang,"Komplex Beli Belah Aeon Anggun, Rawang, G61, No. 1 Persiaran, Anggun, Taman Anggun, Rawang, 48000","Monday - Sunday, 10:00 AM - 10:00 PM",3.316665,101.536474
Subway Kota Kemuning,"2.27.1 (Ground), 14, Persiaran Anggerik Vanilla, Kota Kemuning Seksyen 31, Shah Alam, 40460","Monday - Sunday, 8:00 AM - 10:00 PM",3.003765,101.538959
Subway Cova Square,"G16, Cova Square Jalan Teknologi Pju5 Kota Damansara 47810 Petaling Jaya Selangor","Monday - Sunday, 8:00 AM - 9:00 PM",3.147444,101.575434
Subway Giant Bandar Kinrara  - Puchong,"Giant Hypermkt Bandar Kinrara, Lot No:G8, Lot 449, Jalan BK 5A/1, Bandar Kinrara, Puchong, 47100","Monday - Sunday, 9:30 AM - 10:00 PM",3.050157,101.646321
Subway One City,"One City@Skypark, C-GF-01 Ground Floor, Jalan USJ 25/1, Subang Jaya, 47650","Monday - Sunday, 9:00 AM - 7:45 PM",3.021501,101.581089
Subway Eco Ardence,"L15-G-INT, L15-G-EXT, Ardence Lab, PT8 Persiaran Setia, 40170 Shah Alam, Selangor","Monday - Sunday, 10:30 AM - 8:00 PM",3.095179,101.481037
Subway Southgate,"Pusat Komersial Southgate, No. 2, Jalan Dua, Unit E-1-6, Off Jalan Chan Sow Lin, Lvl 1, Kuala Lumpur, 55200","Monday - Sunday, 8:00 AM - 9:00 PM",3.124517,101.710679
Subway Brem Mall,"G-06, Brem Mall, Jalan Kepong, Kepong, Kuala Lumpur, 52000","Monday - Sunday, 8:00 AM - 10:00 PM",3.204461,101.667600
Subway Festival City,"Setapak Central Mall, Lot S-23, No. 67 Jalan Taman Ibu Kota, Taman Danau Kota, Setapak, Kuala Lumpur, 53200","Monday - Sunday, 10:00 AM - 10:00 PM",3.204575,101.720530
Subway Citta Mall,"Lot F-09, 1st Floor, Citta Mall, No.1 Jln PJU 1A/48, PJU 1A, Ara Damansara, Petaling Jaya, 47301","Monday - Sunday, 9:30 AM - 8:00 PM",3.112187,101.579071
Subway Aeon Big Wangsamaju,"Aeon Big Wangsa Maju, F1-09, First Floor, Jalan 8/27A, Section 5, Wangsa Maju, 53300 Kuala Lumpur.","Monday - Sunday, 10:00 AM - 10:00 PM",3.196496,101.743179
Subway Shell Federal 4,"PT 5, CH 3100, KM 9, Federal Highway 2, Seksyen 1, 40450 Shah Alam, Selangor","Monday - Sunday, 8:00 AM - 8:00 PM",3.048916,101.452038
Subway Endah Parade,"Endah Parade Shopping Complex, Lot G-013A, Ground Floor, Jalan 1/149E, Kuala Lumpur, 57000","Monday - Sunday, 8:00 AM - 10:00 PM",3.063303,101.695198
Subway NKVE,"Lot 15385KM 15.3, (NKVE), Petronas New Klang Expressway, Damansara Bound, Sungai Buloh, 47000","Monday - Sunday, 10:00 AM - 9:00 PM",3.094220,101.541431
Subway BBT,"57-0, Jalan Batu Nilam 4, Bandar Bukit tinggi, 41200 Klang, Selangor",Monday - Sunday (8:00AM - 8:00PM),3.007776,101.436773
Subway Star Avenue,"Star Avenue Lifestyle Mall,  Lot No: L1-13 & L1-K2, No. 3, Jalan Zuhal U5/179, Pusat Komersial Arena Bintang,Seksyen U5, Shah Alam, 40150","Monday - Sunday, 10:00 AM - 10:00 PM",3.154583,101.553631
Subway Metro Point,"Metro Point Complex, Lot G03 Ground Floor, Jalan Jelok 8, Kajang, 43000","Monday - Sunday, 9:30 AM - 9:30 PM",2.991637,101.793722
Subway Forum,"Sunsuria Forum@7th Avenue, Block E, No.E-15,  Seksyen U13, Jalan Setia Dagang AL U13/AL, Setia Alam, 40170 Shah Alam, Selangor","Monday - Sunday, 8:30 AM - 9:00 PM",3.105348,101.467121
Subway Mydin USJ,"G-42 & G-43, Ground Floor,Persiaran Subang Permai, USJ 1, 47500 Subang Jaya, Selangor.","Monday - Sunday, 10:00 AM - 10:00 PM",3.057877,101.592775
Subway Shaftsbury Square,"Shaftsbury Square, P2-08&09, 2350 Persiaran Multimedia, Cyber 6, Cyberjaya, 63000","Monday - Saturday, 8:00 AM – 10:00PM,Sunday, 11:00 AM – 8:00PM",2.923232,101.660782
Subway TBS,"Unit L4-29, 4th Floor, Terminal Bersepadu Selatan, Bandar Tasik Selatan, Kuala Lumpur, 57100","Monday - Sunday, 10:00 AM – 8:00PM,Friday, 9:00 AM – 9:00PM",3.078001,101.710922
Subway KWC (Kenanga),"KWC Fashion Mall, No.2, Jalan Gelugor, Lot G-08, Kuala Lumpur, 55200","Monday - Sunday, 10:00 AM - 8:00 PM",3.136102,101.708431
Subway Selayang 18,"Lot 3.06, 3rd Floor vendor letter SH-15-G,Grd Floor,Selayang, Kuala Lumpur, 68000 , Batu Caves, 68100","Monday - Sunday, 8:00 AM - 9:00 PM",3.255174,101.654411
Subway Shell Bandar Puteri Klang,"Shell Gas Station/C-Store, Shell Bandar Puteri, PT80564,Lorong Pending 4/KS 07, Bandar Puteri, Klang, 41200","Monday - Sunday, 8:30 AM - 9:00 PM",2.994440,101.468173
Subway Sime Darby Parkcity,"Sime Darby Parkcity, CP Retail 2, No. 2 Jalan Intisari, Perdana Desa Parkcity, Kuala Lumpur, 52200","Monday - Sunday, 8:00 AM - 9:30 PM",3.189334,101.638541
Subway TM,"Lower Ground 1 (LG1), Menara TM, Jalan Pantai Baharu, 50672 Kuala Lumpur","Monday, 10:00 AM – 8:00PM,Tuesday - Thursday, 8:00 AM – 8:00PM,Friday, 8:20 AM – 8:00PM,Saturday, 9:00 AM – 9:00PM,Sunday, Closed",3.116129,101.665866
Subway Giant Putra Height,"Giant Hypermarket, Putra Height, No. 3 Persiaran Putra Perdana, Putra Heights, 47650","Monday, 10:00 AM – 10:30PM,Tuesday & Sunday, 10:00 AM – 9:30PM",2.989671,101.572335
Subway Semenyih,"19-G, Ground Floor, Jalan TPS 1/3, Taman Pelangi, 43500 Semenyih, Selangor","Monday - Sunday, 8:00 AM - 10:00 PM",2.931837,101.855625
Subway Petronas Bangi,"Petronas Bandar Baru Bangi, Plot A, Seksyen 15, Bandar Baru Bangi, Kajang, 43000","Monday - Sunday, 8:00 AM - 10:00 PM",2.934294,101.768335
Subway Petronas Cyberjaya,"Petronas Cyberjaya, Lot PT 29771, Persiaran APEC, Cyber 3, Mukim Dengkil, Sepang, 63000","Monday - Sunday, 9:30 AM - 8:00 PM",2.935971,101.661231
Subway GPS,"Petronas Green Plus Station, Plus Hwy & Sungai Besi Hwy, Lot 896, Ground Floor, QSR 3, Mukim Kajang, Hulu Langat, 43300","Monday - Sunday, 8:00 AM - 11:00 PM",3.005880,101.725544
Subway Sunway Lagoon,"Sunway Lagoon Theme Park, FB-Z-001, 3, Jalan PJS 11/11, Bandar Sunway, Petaling Jaya, 46150",Monday - Sunday (10:00AM - 6:00PM)Tuesday : Close,3.071533,101.605323
Subway Sri Gombak,"No. G100, Jalan Prima SG3/2, Taman Prima, Sri Gombak, Kuala Lumpur, 68100","Monday - Sunday, 8:00 AM - 10:30 PM",3.237666,101.700343
"Subway Trillium, Lake Fields","No.66, Jalan Tasik Utama 7, Medan Niaga Tasik Damai, (Trillium) Lake Field, Sg Besi, Kuala Lumpur, 57000","Monday - Sunday, 8:30 AM - 10:00 PM",3.059890,101.710432
Subway Ikon Connaught,"Ikon Connaught, G-02A & Alfresco GA-02A, Ground Floor, Jalan Cerdas, Taman Connaught, Kuala Lumpur, 56100","Monday - Sunday, 10:00 AM - 8:00 PM",3.081465,101.731419
Subway Atria,"Atria Shopping Gallery, Lot C11, Jalan SS 22/23, Damansara Jaya, Petaling Jaya, 47400","Monday - Sunday, 10:00 AM - 10:00 PM",3.127096,101.616518
Subway SS3,"Jalan SS3/39, Ground Floor, Unit 16, Bangunan PJ21, Petaling Jaya, 47300","Monday - Saturday, 8:00 AM – 10:00PM,Sunday, 8:00 AM – 9:00PM",3.090677,101.614668
Subway Ativo Plaza,"Ativo Plaza, #1 Jalan PJU 9/1, Damansara Ave, B-G-2, Block B, Bandar Sri Damansara, Kuala Lumpur, 52200","Monday - Saturday, 8:30 AM – 10:00PM,Sunday, 8:30 AM – 9:30PM",3.196263,101.616271
Subway Quill City (LG),"Quill City Mall, LG-02, No. 1018, Jalan Sultan Ismail, Kuala Lumpur , 50250","Monday - Sunday, 10:00 AM - 10:00 PM",3.159488,101.700170
Subway Centro Mall,"Centro Mall, G13, No. 8, Jalan Batu Tiga Lama, Kawasan 16, Klang, 41300","Monday - Sunday, 8:30 AM - 10:00 PM",3.052870,101.462789
Subway Sunway U,"No. 27 Jalan PJS 11/9, Bandar Sunway, Petaling Jaya, 46150","Monday - Sunday, 9:00 AM - 8:00 PM",3.067818,101.603107
Subway KLIA2 (A),"Gateway@ KLIA2, L2-119, Terminal KLIA2,KL Intl Airport, Jalan KLIA 2/1, Sepang, 64000","Monday - Sunday, 9:00 AM - 8:00 PM",2.744089,101.685639
Subway Kota Damansara,"15-1, Jalan PJU 5/6, Dataran Sunway, Kota Damansara, Petaling Jaya, 47810","Monday - Sunday, 8:00 AM - 8:00 PM",3.153206,101.594907
Subway I-City,"i-City, City Park A-5-G, Jalan Multimedia 7/A, Shah Alam, 40000","Monday - Friday, 10:30 AM – 10:30PM,Saturday & Sunday, 11:00 AM – 10:30PM",3.065016,101.482803
Subway OUG,"A1-07 Jalan 1/52, Taman OUG Parklane Off Jalan Klang Lama 58200 Kuala Lumpur","Monday - Sunday, 9:00 AM - 10:00 PM",3.074779,101.661593
Subway Aeon Bukit Raja,"Aeon Bukit Raja Shopping Ctr, C9, Persiaran Bukit Raja 2, Bandar Baru Klang, Klang, 41150","Monday - Sunday, 10:00 AM - 10:00 PM",3.060881,101.472268
Subway Petronas Kesas,"Petronas Station, Lebuhraya Kesas Arah Barat KM34.5, Lebuhraya Kesas, 40000 Shah Alam, Selangor","Monday - Saturday, 7:30 AM – 10:00PM,Sunday, 8:00 AM – 10:00PM",3.050101,101.563370
Subway Sri Petaling,"No. 53, Jalan Radin Bagus, 57000 Sri Petaling, Kuala Lumpur","Monday - Sunday, 8:00 AM - 10:00 PM",3.070392,101.695026
Subway Puncak Jalil,"116 Jalan PUJ 3/2,Taman Puncak Jalil, Bandar Putra Permai,Seri Kembangan, 63300","Monday - Sunday, 9:00 AM - 10:00 PM",3.020222,101.675020
Subway Aeon Alpha Angle,"AEON Alpha Angle Shopping Ctr, Lot F37A, Jalan R1, Seksyen 1, Bandar Baru Wangsa Maju, Kuala Lumpur, 53300","Monday - Sunday, 10:00 AM - 10:00 PM",3.201844,101.731845
Subway My Town,"Lot B1-07 & B1-08, Level Basement 1, MyTOWN Shopping Centre, Jalan Cochrane, Seksyen 90, Kuala Lumpur, 55100","Monday - Sunday, 10:00 AM - 10:00 PM",3.134863,101.722843
Subway D Pulze,"LG-03a, Lower Ground Floor, Dpulze Shopping Centre, Lingkaran Cyber Point Timur, Cyber 12, 63000 Cyberjaya, Selangor Darul Ehsan","Monday - Sunday, 10:00 AM - 8:00 PM",2.922055,101.650968
Subway Utropolis,"G-B2a, Utropolis Marketplace, Jalan Kontracktor U1/14, Seksyen U1, 40150 Shah Alam, Selangor","Monday - Sunday, 8:30 AM - 9:00 PM",3.090114,101.559864
Subway Great Eastern Mall,"Great Eastern Mall, Lot 4C Lower Ground Floor, No 303 Jalan Ampang, Kuala Lumpur, 50450","Monday - Friday, 8:30 AM – 8:30PM,Saturday & Sunday, 9:30 AM – 8:30PM",3.160073,101.736901
Subway NU Sentral,"L4.13, Level Four, NU Sentral, No. 201 Jalan Tun Sambanthan, Kuala Lumpur, 50470","Monday - Sunday, 9:00 AM - 9:00 PM",3.133075,101.687034
Subway East Coast Mall,"GF08C, Jln Putra Square 6,East Coast Mall, 25200,Kuantan, Pahang","Monday - Sunday, 10:00 AM - 10:00 PM",3.818357,103.326243
Subway IOI City Mall,"IOI City Mall, Lebuh IRC, IOI Resort City, 62502 Putrajaya, Malaysia","Monday - Sunday, 10:00 AM - 9:00 PM",2.970663,101.713668
Subway Sunway Putra,"Lot 4-60 & 4-79A, Fourth Floor, Sunway Putra Mall, No. 100, Jalan Putra, 50350 Kuala Lumpur","Monday - Sunday, 10:00 AM - 10:00 PM",3.166426,101.692419
Subway Teluk Chempedak,"No. 69, Shoplex TreeUnder Teluk Chempedak Beach, 25050 Kuantan Pahang","Monday - Sunday, 8:00 AM - 10:00 PM",3.812313,103.371154
Subway Sunway Pinnacle,"M-01, Mezzanine Floor, The Pinnacle, Persiaran Lagoon, Bandar Sunway, 46150 Petaling Jaya, Selangor","Monday - Friday, 8:00 AM – 8:00PM,Saturday, 9:00 AM – 6:00PM,Sunday, Closed",3.070182,101.610049
Subway Melawati Mall,"L3-22, Third Floor, Melawati Mall, UP2-01, Melawati Mall, 355, Jalan Bandar Melawati, Pusat Bandar Melawati, 53100 Kuala Lumpur","Monday - Sunday, 10:00 AM - 10:00 PM",3.211379,101.748677
Subway Sunway Medical,"Sunway Medical Centre, Ground Floor,No. 5, Jalan Lagoon Selatan, 47500 Selangor","Monday - Sunday, 8:00 AM - 8:00 PM",3.066085,101.608626
Subway Taman Melati,"No. 71-G Jalan Melati Utama 4, Taman Melati Utama, 53100 Setapak, Kuala Lumpur","Monday - Sunday, 7:30 AM - 10:00 PM",3.222755,101.731182
Subway Shell Melati,"PT 5729, Batu 6 1/2, Ulu Gombak, 68100 Gombak. Selangor","Monday - Sunday, 8:30 AM - 6:00 PM",3.235291,101.723508
Subway Shell Karak,"PT 5946, Lebuhraya Karak, 68100 Gombak, Selangor","Monday - Sunday, 8:30 AM - 10:30 PM",3.241128,101.716156
Subway Bukit Jalil,"Level 1 Axiata Arena, KL Sport City, Bukit Jalil, 57000, Kuala Lumpur","Monday - Sunday, 9:00 AM - 10:00 PM",3.053815,101.693434
Subway Sentul Sky Awani,"Ground Floor , Unit No. G-11, Residensi Awani, Sky Awani, No. 27 Jalan Sentul Perdana 51100, Kuala Lumpur","Monday - Sunday, 8:00 AM - 10:00 PM",3.209174,101.691372
Subway Evo Mall,"G.07, Seksyen 9, Bandar Baru Bangi, 43650 Selangor","Monday - Sunday, 10:00 AM - 10:00 PM",2.962721,101.753783
Subway Damansara Perdana,"D-S-G-01, Metropolitan Square, Jalan PJU 8/1, Damansara Perdana, Petaling Jaya, 47820, Selangor","Monday - Friday, 8:00 AM – 10:00PM,Saturday & Sunday, 8:00 AM – 9:30PM",3.166098,101.607914
Subway Pearl Point,"Lot No. 1.0.69 (Ground Floor), Pearl Point Shopping Mall, Batu 5, Jalan Klang Lama, 58000 Kuala Lumpur",Monday - Sunday (9:00AM - 10:00PM),3.083153,101.669445
Subway Gurney Mall (UTMKL),"Lot 1-03, Level 1, Residensi UTMKL, No 8 Jalan Maktab, 54000 Kuala Lumpur","Tuesday – Sunday, 10:00 AM – 9:30PM,Monday, 8:00 AM – 9:30PM",3.171561,101.721805
Subway KLTS,"45-G, Plaza KLTS, Block C, Jalan Gombak, 53000 Kuala Lumpur","Monday - Sunday, 9:00 AM - 9:30 PM",3.204075,101.703480
Subway Jaya One,"100-P2.015, Level 2, Block J, The School Jaya One, No.72A Jalan Prof Diraja Ungku Aziz, 46200 Petaling Jaya, Selangor","Monday - Sunday, 10:30 AM - 9:00 PM",3.117373,101.635064
Subway Petronas Grand Saga 3,"Lot 432, Lebuhraya Grand Saga, (Kajang Bound)  43300, Kajang, Selangor",,3.025706,101.771637
Subway Bandar Rimbayu,"No 43, Jalan Flora 2/2, Bandar Rimbayu, 42500 Telok Panglima Garang, Selangor","Monday - Sunday, 8:00 AM - 10:00 PM",2.933245,101.547994
Subway Sungai Buloh,"2390, Jalan 1A-1, Bdr Baru Sg Buloh, Seksyen U20, 40610 Shah Alam, Selangor","Monday - Sunday, 8:00 AM - 10:00 PM",3.210350,101.564883
Subway Subang Parade,"LGC17, Lower Ground Floor, Subang Parade Shopping Centre, Jalan Kemajuan Subang, Ss 16, 47500 Subang Jaya, Selangor","Monday - Sunday, 9:00 AM - 10:00 PM",3.081489,101.585103
Subway Temerloh,"No 19, Jalan Sudirman 2,Bandar Temerloh,28000 Temerloh, Pahang","Monday - Sunday, 9:30 AM - 10:30 PM",3.449613,102.415563
Subway Setia City Mall,"LG-078, Lower Ground Floor, Setia City Mall, Bandar Setia Alam, 40170 Shah Alam, Selangor","Monday - Sunday, 10:00 AM - 10:00 PM",3.109469,101.460218
Subway KL East Mall,"LG 37  , Lower Ground Floor, KL East Mall, 823 Jalan Lingkaran Tengah 2, KL Timur, 53100 Kuala Lumpur","Sunday – Thursday, 10:00 AM – 8:00PM,Friday & Saturday, 9:00 AM – 8:00PM",3.224754,101.730533
Subway Bandar Sri Permaisuri,"Lot R-G-07, Ground Floor Q Avenue, Kompleks Permaisuri Q, No.6,Jalan Sri Permaisuri, Bandar Sri Permaisuri, Cheras 56000 Kuala Lumpur","Monday - Sunday, 10:00 AM - 9:00 PM",3.101187,101.711708
Subway Bukit Mahkota,"No 12, Jalan Seri Putra 1/25, Bandar Seri Putra, 43000 Kajang, Selangor","Monday - Sunday, 8:00 AM - 10:00 PM",2.886468,101.791289
Subway Mahkota Cheras,"32G, Jalan Temenggung 1/9, Bandar Mahkota Cheras, 43200 Cheras, Selangor","Monday - Sunday, 10:00 AM - 11:00 PM",3.050916,101.789313
Subway Eco Grandeur,"19, Ruang Niaga Eco Grandeur, Persiaran Mokhtar Dahari,42300 Bandar Puncak Alam,Selangor Darul Ehsan.","Monday - Sunday, 8:00 AM - 10:00 PM",3.225739,101.456014
Subway KLCC,"Lot F208, Second Floor, Suria KLCC, Jalan Ampang, Golden, 50088 Kuala Lumpur","Monday - Sunday, 10:00 AM - 10:00 PM",3.159186,101.712392
Subway Banting,"No 7G Ground Floor, Jalan Cemerlang 1A, Pusat Perdagangan Banting, 42700 Banting, Selangor","Monday - Sunday, 8:00 AM - 10:00 PM",2.812757,101.508583
Subway Bentong,"P10-G, Jalan MG1, Pusat Perniagaan Mutiara Gemilang, 28700 Bentong, Malaysia","Monday - Sunday, 8:00 AM - 10:00 PM",3.538956,101.901818
Subway Kuala Selangor,"No G-2 (Ground Floor), Jalan Bendahara 1A, Taman Bendahara, 45000 Kuala Selangor, Selangor.","Monday - Sunday, 8:00 AM - 10:00 PM",3.322146,101.266424
Subway Sri Serdang,"No 11 Jalan 18/34 Taman Sri Serdang, Seri Kembangan 43300 Selangor","Monday - Sunday, 8:00 AM - 10:00 PM",3.008624,101.713288
Subway Alam Budiman,27G Jalan Pulau Lumut P U/10 P Taman Alam Budiman 40150 Shah Alam,"Monday - Sunday, 9:30 AM - 10:00 PM",3.144571,101.481360
Subway Kepong,"91, Jalan Metro Barat Perdana 1, Taman Usahawan Kepong, 52100 Kuala Lumpur","Monday - Sunday, 8:00 AM - 8:30 PM",3.214719,101.639538
Subway Damansara Damai,"G001, Seasons Square, Jalan Pju 10/3C, Damansara Damai, 47830  Petaling Jaya, Selangor","Monday - Sunday, 7:30 AM - 10:00 PM",3.195960,101.592210
Subway Shell Salak Tinggi,"Lot 343, Jalan Bukit Changgang-Nilai, Bandar Baru Salak Tinggi, 43900 Sepang, Selangor.",Monday - Sunday (8:00AM - 10:00PM),2.805323,101.723729
Subway Kidzania KL,"Kidzania Kuala Lumpur, Lot 11, Lower Ground Curve NX, No.18 Jalan PJU 7/5, 47810 Mutiara Damansara, Petaling Jaya Selangor",Mon - Sun : 10am-6pmTues : Close,3.158034,101.613800
Subway Eco Majestic,"1-3A Blok 1, Jalan Eco Majestic 10/1, Eco Majestic, 43500 Semenyih Selangor","Monday - Sunday, 8:00 AM - 10:00 PM",2.898997,101.833205
Subway BTHO,"No 5A, Ground Floor, Jalan Suarasa 8/3 Bandar Tun Hussien Onn, 43200 Cheras, Selangor Darul Ehsan","Monday - Sunday, 7:30 AM - 10:00 PM",3.046735,101.760650
Subway Thomson Hospital,"GF-Unit 1109-3, 11 Jalan Teknologi PJU 5, 47810 Kota Damansara, Petaling Jaya, Selangor","Monday - Friday, 8:00 AM – 9:00PM,Saturday & Sunday, 9:00 AM – 7:00PM",3.149023,101.578800
Subway BHP Jalan Kuching,"BHPetrol Jalan Kuching, Lot PT 4283 & Lot 6086 Jalan Kuching, 52100 Kuala Lumpur.","Monday - Sunday, 7:30 AM - 10:00 PM",3.188440,101.670158
Subway Hero Puchong,"Lot No G-13 , Hero Puchong, Lot 1, Jalan Puteri 1/1 , 43200 Puchong, Selangor.","Monday - Sunday, 9:00 AM - 9:00 PM",3.025863,101.618133
Subway Southville City,"Lot E4-G-2 Block E Savanna Boulevard Retail Jalan BBLS 2, Bandar Baru Lembah Selatan 43800 Dengkil Selangor","Monday - Sunday, 8:00 AM - 10:00 PM",2.904341,101.764470
Subway Setia Taipan,"No 58-G Jalan Setia Utama  As U13/As, Bandar Setia Alam, 40170 Shah Alam, Selangor","Monday - Sunday, 8:00 AM - 10:00 PM",3.125382,101.468570
Subway Ole-ole,"Lot 1-3A, Ground Floor, Ole Ole Shopping Centre, No. 7, Jalan Pinang A 18/A, Seksyen 18, 40200 Shah Alam, Selangor","Monday - Sunday, 10:00 AM - 10:00 PM",3.043655,101.516821
Subway Pavilion Bukit Jalil,"Lot 1.40.00, Persiaran Jalil Utama, Bukit Jalil, Kuala Lumpur","Monday - Sunday, 9:30 AM - 10:00 PM",3.050264,101.671016
Subway @TimurBay Balok,"TR-10, Timur Bay @ Balok, Jalan Kuantan – Kemaman,26100 Kuantan, Pahang","Monday - Sunday, 9:00 AM - 10:00 PM",3.901533,103.364574
Subway Country Homes,"9, Jalan Pusat BCH 1A, Bandar Country Homes, 48000 Rawang, Selangor","Monday - Sunday, 8:00 AM - 10:00 PM",3.323510,101.525893
Subway Hentian Kajang,"5G, Jalan Hentian, Pusat Hentian Kajang, Jalan Reko, 43000 Kajang Selangor","Monday - Sunday, 8:00 AM - 10:00 PM",2.966968,101.790229
Subway Bloom,"G-16, Pangsapuri Eco Bloom, Tingkat Eco Meadows 1, 14100 Simpang Ampat, Pulau Pinang","Monday - Sunday, 10:00 AM - 10:00 PM",5.259220,100.468693
Subway Petron Ukay Perdana,"No. PT 5765, Jln Ukay Perdana, Ukay Perdana, 68000 Ampang, Selangor",Monday - Sunday (8:00AM - 10:00PM),3.197120,101.775058
Subway Bandar Enstek,"No 85 Jalan 6/1B, Timur @ Enstek, 71760 Bandar Enstek, Negeri Sembilan.","Monday - Sunday, 10:00 AM - 10:00 PM",2.748408,101.764729
Subway Dengkil,"No 23 (Aras Bawah), Jalan Deluxe 3, Pusat Perdagangan Deluxe, 43800 Dengkil, Selangor, Malaysia","Monday - Sunday, 8:00 AM - 10:00 PM",2.863618,101.676015
Subway Lotus Cheras,"Lot G27-G29, No.2, Jalan Midah 2, Taman Midah, 56000 Cheras, Kuala Lumpur","Monday - Sunday, 9:30 AM - 9:00 PM",3.099541,101.734766
Subway Equine Park,"7-G, Jalan Putra Permai 1A, Taman Equine, 43300 Seri Kembangan, Selangor.","Monday - Sunday, 8:00 AM - 10:00 PM",2.996182,101.669745
Subway Mydin Jengka,"Lot Pt 27931 (Hsm 21160),Mukim Chenor, Daerah Maran,Pahang Darul Makmur.",Monday - Sunday (8:00AM - 10:00PM),3.773259,102.542843
Subway Syopz,"G-5, The Boardwalk, No.2, Jalan Taylor’s, 47500 Subang Jaya, Selangor Darul Ehsan","Monday - Saturday, 10:00 AM – 10:00PM,Sunday, Closed",3.064467,101.616106
Subway Lotuss Rawang,"G18, Lotus’s Rawang, No 1 Jalan Rawang 48000 Rawang Selangor.","Monday - Sunday, 10:00 AM - 10:00 PM",3.302715,101.598280
Subway Matahari Mall,"Lot S15 & S16 , Ground Floor, Matahari Mall, No. 1, PJS 2/18, Taman Maju Jaya, 46000 Petaling Jaya,Selangor",Monday - Sunday (10:00AM - 9:30PM),3.080121,101.638012
Subway SPARK,"1-01 Plaza Salak Park, No 2, Jalan 1/125E, Taman Desa Petaling, 57100 Kuala Lumpur",Monday - Sunday (8:00AM - 10:00PM),3.082778,101.702471
Subway Cameron Highland,"B-G-23, Presint 1, Cameron Centrum, 39100 Brinchang Cameron Highlands, Pahang","Monday - Sunday, 9:00 AM - 11:00 PM",4.495147,101.389435
Subway Sunway Pyramid,"LG2.32, Lower Ground Two, Sunway Pyramid, 3, Jalan PJS 11/15, Bandar Sunway, 47500 Petaling Jaya, Selangor","Monday - Sunday, 10:00 AM - 10:00 PM",3.072606,101.607723
Subway Caltex Serdang,"No.2, Lot.14985, Jalan SR 8/1, Taman Putra Indah, 43300, Seri Kembangan, Selangor","Monday - Sunday, 8:00 AM - 10:00 PM",3.047098,101.704403
Subway Subang Bestari,"No 4, Jalan Nova N U5/N, Seksyen U5, 40150 Shah Alam, Selangor","Monday - Sunday, 10:00 AM - 10:00 PM",3.178129,101.547335
Subway Denai Alam,"Unit Ground Floor, No 7, Jalan Electron E U16/E, Seksyen U16, 40160 Shah Alam,Selangor","Monday - Sunday, 8:15 AM - 9:45 PM",3.161212,101.511881
Subway Aeon Taman Maluri,"Lot G32,AEON Mall Taman Maluri, Jalan Jejaka, Taman Maluri Cheras 55100, Kuala Lumpur","Sunday - Thursday, 10:00 AM – 10:00PM,Friday & Saturday, 10:00 AM – 10:30PM",3.125925,101.728399
Subway Batang Kali,"60-1, Jalan Ara 2, Pusat Perdagangan Ara Seksyen 5, Bandar Utama Batang Kali, 44300 Batang Kali, Selangor.","Monday - Sunday, 8:00 AM - 10:00 PM",3.455017,101.662391
Subway Subang Perdana,"No. 17-G, Jalan Dinar D U3/D, Seksyen U3, 40150 Shah Alam, Selangor","Monday - Sunday, 8:00 AM - 10:00 PM",3.148819,101.545546
Subway KL Gateway,"G1.K5, Lower Ground 1, KL Gateway Mall, 2, Jalan Kerinchi, 59200 Kuala Lumpur",Monday - Sunday (8:00AM - 10:00PM),3.114111,101.663270
Subway Lotuss Selayang,"Lot F-18 & 18 (External) No. 1081, Jalan Ipoh Mukim Batu 51200 Kuala Lumpur",Monday - Sunday (10:00AM - 10:00PM),3.222777,101.670945
Subway Batu Berendam,"No. 7, Jalan Mutiara Melaka 4 Taman Mutiara Melaka 75350 Melaka.","Monday - Sunday, 8:00 AM - 10:00 PM",2.240147,102.259756
Subway Hartamas SC,"Lot G-22A & G-22B . Hartamas Shopping Center, 60, Jalan Sri Hartamas 1, Taman Sri Hartamas, 50480 Kuala Lumpur, Wilayah Persekutuan Kuala Lumpur",Monday - Sunday (10:00AM - 10:00PM),3.163504,101.656995
Subway Paradigm Mall,"LG-33A(P), LG Floor No. 1, Jalan SS7/26A Kelana Jaya 47301 Petaling Jaya Selangor","Monday - Sunday, 10:00 AM - 10:00 PM",3.105084,101.596048
Subway Damen,"LG38, Lower Ground Floor Damen USJ 1 Jalan Persiaran Kewajipan USJ 1 47600 Subang Jaya","Monday - Sunday, 10:00 AM - 10:00 PM",3.058525,101.592670
Subway Tropicana Garden,"CC-K55A, Concourse Floor, No. 2A, Persiaran Surian Tropicana Indah, 47810 Petaling Jaya, Selangor",Monday - Sunday (10:00AM - 10:00PM),3.149188,101.593094
Subway Main Place,"LG33, Main Place Mall USJ, Jalan USJ 21/10, Persiaran Kewajipan, 47630 Subang Jaya, Selangor.","Monday - Sunday, 10:00 AM - 10:00 PM",3.026320,101.581147
Subway KLIA2,"S1-1A- A19, Sector 1, Gate J, KLIA 2, 64000 KLIA, Sepang Selangor","Monday - Sunday, 9:00 AM - 8:00 PM",2.734453,101.722280
Subway Sungai Rengit,"89(Ground floor), Jalan Hee Seng, Sungai Rengit, 81620 Pengerang, Johor.",Monday - Sunday (8:00AM - 10:00PM),1.350794,104.223669
Subway Intermark Mall,"The Intermark, Intermark Mall, 348, Jalan Tun Razak, 50400 Kuala Lumpur","Monday - Sunday, 10:00 AM - 10:00 PM",3.161545,101.719918
Subway Bandar Saujana Putra,"No. 11, Jalan SP 1/1, Bandar Saujana Putra, 42610 Jenjarom, Selangor","Monday - Sunday, 8:00 AM - 10:00 PM",2.951905,101.576533
Subway Dataran Pahlawan Melaka Megamall,"G-001, Dataran Pahlawan Melaka Megamall, Jalan Merdeka Bandar Hilir 75000, Melaka","Monday - Sunday, 10:00 AM - 10:00 PM",2.189751,102.252619
Subway Aeon Bandaraya,"G 78B, Aeon Bandaraya Shopping Centre No.2, Jalan Lagenda Taman 1-Lagenda 75400, Melaka","Monday - Sunday, 10:00 AM - 10:00 PM",2.211924,102.247772
Subway Mahkota Parade,"No.1, Jalan Merdeka, Lot KG5E Ground Floor, Melaka",Monday - Sunday (10:00AM - 10:00PM),2.188287,102.249271
Subway Retail Unit 12,"Retail Unit 12, Galeria PJH, Aras 1, Jalan 4B, Persiaran Perdana, Presinct 4, Putrajaya, 62100","Monday - Sunday, 8:00 AM - 8:00 PM",2.913198,101.684225
Subway Alamanda Shopping Centre,"Alamanda Shopping Centre, Jalan Alamandra Precinct 1, Lot LG33B, Lower Grd Floor, Putrajaya, 62000","Monday - Sunday, 10:00 AM - 10:00 PM",2.939529,101.710617
Subway 9 Avenue,"Shop 3, Ground Floor, 9 Avenue, Taman Koporat, Putra Nilai, 71800 Nilai, Negeri Sembilan","Monday - Sunday, 9:00 AM - 10:00 PM",2.811007,101.791640
Subway Mydin MITC,"Mydin Hypermarket. 12 Mydin Mall MITC, G-01, Melaka, ME, Malaysia 75450","Monday - Sunday, 9:00 AM - 10:00 PM",2.270642,102.291999
Subway Palm Mall,"Lot 39 UG Floor, Palm Mall, Jalan Sungai Ujong, Seremban, 70200 Malaysia","Monday - Sunday, 10:00 AM - 8:00 PM",2.719856,101.922900
Subway Mydin Senawang,"Lot G-01, No. 110 Jalan BPS 7, Mydin Mall Senawang, 70450 Seremban, Negeri Sembilan, Malaysia","Monday - Sunday, 9:00 AM - 9:30 PM",2.701351,101.980048
Subway Melaka Sentral,"KM12, Zone C, Bangunan Terminal Melaka Sentral, Jalan Tun Abdul Razak, 75300 Peringgit, Melaka, Malaysia","Monday - Sunday, 9:30 AM - 7:00 PM",2.221155,102.250083
Subway Aeon Seremban,"Lot G61, Aeon Seremban 2, 112 Persiaran S2 B1, Seremban 2, 70300 Seremban, Negeri Sembilan, Malaysia","Monday - Sunday, 10:00 AM - 10:00 PM",2.701384,101.911948
Subway Mesamall,"Lot G-25, MesaMall, Lot 13865, Persiaran Ilmu BBN, Bandar Baru Nilai, 71800 Nilai, Negeri Sembilan, Malaysia","Monday - Sunday, 10:00 AM - 10:00 PM",2.825131,101.777424
Subway Giant Kuala Pilah,"G03 & PS23, Giant Superstore Kuala Pilah, Kampung Kayu Ara, 72000 Kuala Pilah, Negeri Sembilan, Malaysia","Monday - Sunday, 10:00 AM - 7:00 PM",2.737869,102.217957
Subway Aeon Nilai,"S-11 Level 2, Aeon Nilai, Persiaran Pusat Bandar, 71800 Bandar Baru Nilai, Negeri Sembilan, Malaysia","Monday - Sunday, 9:30 AM - 10:00 PM",2.817904,101.789877
Subway Unicity,"G-039 & G-40, Ground Floor, Unicity Mall, Bandar Seremban 3, 70300 Seremban, Negeri Sembilan",,2.672767,101.934207
Subway Tesco Cheng,"Lot G7, Tesco Melaka Cheng, 1, Jalan Inang 3, Taman Paya Rumput Utama, 75460 Melaka","Monday - Sunday, 9:00 AM - 8:00 PM",2.281134,102.216112
Subway Presint 15,"No.32, Jalan Diplomatik 3/1, Presint 15, 62050 Putrajaya","Monday - Sunday, 8:00 AM - 10:00 PM",2.944474,101.721963
Subway The Shore,"Lot GF-25, The Shore Shopping Gallery, 193, Pinggiran @Sungai Melaka, Jalan Persisiran Bunga Raya, 75100 Melaka","Monday - Sunday, 10:00 AM - 10:00 PM",2.201859,102.250301
Subway OBR Ayer Keroh,"Lot No. S-01-SB, Overhead Bridge Restaurant Ayer Keroh, KM210, North South Expressway, 76470 Ayer keroh, Melaka",Monday - Sunday (9:00AM - 10:00PM),2.151982,102.693131
Subway Mydin Jasin,"Lot No. GSRU-24, GSRU-31, Mydin Jasin, PT 8537, Seksyen 1, Bandar jasin Bestari, Mukim Ayer panas, 77200 Jasin, Melaka.",,2.277683,102.387650
Subway AEON Ayer Keroh,"Lot G18 & G19, Ground floor, AEON Melaka Shopping Center, Lebuh Ayer keroh, 75450 Melaka.","Monday - Sunday, 10:00 AM - 10:00 PM",2.234230,102.282382
Subway Bahau,"51, Jalan Kiara 2, Pusat Perniagaan Kiara, 72100 Bahau, Negeri Sembilan.","Monday - Sunday, 9:30 AM - 10:30 PM",2.810638,102.394719
Subway Ayer@8,"No.A2-G3, Ground floor, Ayer@8, Phase 8C1, Jalan P8G, Precint 8, 62250 WP Putrajaya.",,2.925637,101.680029
Subway Waterfront PD,"No.9 (Ground floor), Jalan waterfront 5, PD waterfront, 71000 Port Dickson, Negeri Sembilan",Monday - Sunday (10:00AM - 10:00PM),2.521904,101.802709
Subway Mydin Sebang,"GF & B-25, Mydin Pulau Sebang, PT20 & 2053, Jalan Besar, Alor Gajah, 7800 Melaka.","Monday - Sunday, 10:00 AM - 10:00 PM",2.462518,102.230506
Subway Jelebu,"189-1,Jalan Dato Menteri 71600 Kuala Kelawang, Jelebu Negeri Sembilan","Monday - Sunday, 8:00 AM - 10:00 PM",2.940653,102.071944
Subway Caltex Termiang,"Lot No. 40766, Bandar Seremban, Daerah Seremban, Negeri Sembilan","Monday - Sunday, 10:00 AM - 10:00 PM",2.726386,101.936951
Subway E-Gate Penang,"No:1, Lebuh Tunku Kudin 2 Lot:1-01-04, E-Gate, Gelugor","Sunday - Thursday, 8:00 AM – 11:00PM,Friday & Saturday, 8:00 AM – 12:00AM",5.375986,100.315323
Subway Autocity Penang,"1834-G2, Jalan Perusahaan Auto City North-South Highway","Monday - Sunday, 7:30 AM - 11:00 PM",5.337297,100.429494
Subway Straits Quay,"Jalan Seri Tanjung Pinang 3A-1-8 & 3A-1-8A, Block A Straits Quay Retail Marina","Monday - Sunday, 9:00 AM - 10:00 PM",5.459188,100.313520
Subway Queensbay,"100 Persiaran Bayan Indah Postal No. LG-46, 45, 51(B) Queensbay Mall","Monday - Sunday, 9:00 AM - 10:30 PM",5.332683,100.306698
Subway Penang Sentral,"Lot 3-06, Level 3 5130 Terminal Penang Sentral 12100  Butterworth","Monday - Sunday, 9:30 AM - 8:00 PM",5.394980,100.365318
Subway Suntech Cybercity,1-G-1 Suntech Penang Cybercity Lintang Mayang Pasir 3,"Monday - Sunday, 7:00 AM - 10:30 PM",5.325683,100.286060
Subway Sungai Dua,"723-R-G Jalan Sg Dua, Unit 9, Ground Floor,Vanda Business Park, Sungai Dua, 11700 Pulau Pinang","Monday - Sunday, 7:30 AM - 11:00 PM",5.351981,100.299134
Subway Kulim Avenue,"109 Persiaran 4, Tmn Kulim Ave Kulim Hi-Tech","Monday - Friday, 7:30 AM – 10:00PM,Saturday & Sunday, 8:00 AM – 10:00PM",5.387991,100.571469
Subway I-Avenue,"Medan Kampung Relau 1 1-1-45 i-Avenue, Mukim 12, Bayan Baru","Monday - Sunday, 7:00 AM - 10:00 PM",5.332918,100.293404
Subway Butterworth,"#7227 Lot 2489 & 2490 Seksyen 2, Jalan Raja Uda Petronas Station","Monday - Sunday, 7:30 AM - 10:30 PM",5.426373,100.383031
Subway Perak Road,"338B-1 Jalan Perak, Jelutong, PP 11600, Malaysia","Monday - Sunday, 7:00 AM - 10:30 PM",5.397825,100.314668
Subway Amanjaya Mall,"Kompleks Amanjaya, Kiosk 28, Tingkat 2, Jalan Jati 1, 08000, Sungai Petani, Kedah, 08000 Sungai Petani","Monday - Thursday, 10:30 AM – 10:30PM,Friday - Sunday, 10:00 AM – 11:00PM",5.673434,100.508465
Subway Tesco Extra Seberang Jaya,"OL6, Tesco Extra Seberang Jaya 2762 Persiaran Sembilang Tesco Extra Sebrang Jaya","Monday - Sunday, 10:00 AM - 9:30 PM",5.405616,100.405037
Subway Kampung Baru,No.2 Lorong Maju Utama 1 Pusat Perniagaan Jalan Maju,"Monday - Sunday, 7:00 AM - 10:30 PM",5.352051,100.471460
Subway Tesco Bukit Mertajam,"TESCO Bukit Mertajam G6, 2323 Jalan Rozhan","Monday - Sunday, 10:00 AM - 10:00 PM",5.315830,100.475838
Subway Pantai Cenang Langkawi,Lot 2606 Jalan Pantai Cenang PG3 Cenang Plaza Beach Hotel,"Monday - Sunday, 9:00 AM - 9:30 PM",6.290615,99.727358
Subway Alor Setar Mall,"Kawasan Perusahaan Tandop Baru G-20, Ground Floor Alor Star Mall","Monday - Sunday, 10:00 AM - 8:00 PM",6.082020,100.360966
Subway C-Mart Arau,"Lot 38-39, Kompleks Arau Pekan Arau, Jalan Arau","Monday - Sunday, 9:00 AM - 9:00 PM",6.428629,100.272884
Subway Pearl City Simpang Empat,"G-11, No 1720 Persiaran Mutiara 4, Pusat BandarTasek Mutiara","Monday - Saturday, 8:00 AM – 10:30PM,Sunday, 8:00 AM – 11:00PM",5.276839,100.490417
Subway Central Square,"23 Jalan Kampung Baru Lot GK-02 Central Square Shopping Center, 08000 Sungai Petani, Kedah","Monday - Sunday, 9:00 AM - 10:00 PM",3.163051,101.706183
Subway Lintang Angsana Ayer Itam,"38A, Lintang Angsana, Bandar Baru Air Itam, 11500 Ayer Itam, Pulau Pinang","Monday - Sunday, 7:00 AM - 10:00 PM",5.388732,100.282409
Subway Petronas Batu Feringghi,Lot 697 & 764 Jalan Batu Feringghi Petronas Gas Station/C-Store,"Monday - Sunday, 8:00 AM - 11:00 PM",5.472207,100.276803
Subway C-Mart Alor Setar,"No. S6 & S13, Lot 92, Jalan Istana Kuning, 05000, Alor Setar, Kedah, 05000 Alor Setar","Monday - Sunday, 8:00 AM - 10:00 PM",6.124727,100.368299
Subway BDI Jitra,"Kawasan Perusahaan Bandar Darulaman Plot 40, Lot 21","Monday - Thursday, 8:00 AM – 10:30PM,Friday & Saturday, 8:00 AM – 11:00PM",6.253698,100.429088
Subway Landmark Centre,1 Jalan KLC Satu Unit 1K-07 Landmark Central Shopping,,5.385690,100.546555
Subway Padang Kota Lama,"15, 17, Light St, Georgetown, 10200 George Town, Penang","Sunday - Thursday, 7:30 AM – 10:00PM,Sunday, 8:00 AM – 9:00PM",5.420162,100.341681
Subway Nibong Tebal,Kompleks Industri Cenderawasih Lot G75 & G76 Jalan Besar Mukim 11,"Monday - Sunday, 8:00 AM - 10:30 PM",5.178748,100.481445
Subway Jetty Point,"Shop Lot Zone 2N-Lot 7,Jetty Point Duty Free Complex, Jetty Kuah,70000 Kedah","Monday - Sunday, 9:00 AM - 8:00 PM",6.306447,99.851812
Subway Balik Pulau,"47, Jln Tun Sardon, Balik Pulau, 11000 Penang","Monday - Sunday, 7:00 AM - 10:30 PM",5.351048,100.239592
Subway City Junction,"No. 2-1-5 Lot C,  City Junction,Persiaran Lengkuas 2","Monday - Sunday, 7:00 AM - 10:00 PM",5.449807,100.304966
Subway Setia Sentral,"11A, Lorong Setia Sentral 1, Pusat Perniagaan  Setia Sentral, Bukit Mertajam","Monday - Sunday, 7:00 AM - 11:00 PM",5.355626,100.417626
Subway Hutton Lane,"227, Jalan Hutton, 10050 George Town, Pulau Pinang","Monday - Sunday, 7:00 AM - 10:30 PM",5.422105,100.326087
Subway G Walk,"No G-8A, Ground Floor, Gurney Walk,  18, Gurney Dr,  10250 George Town, PG","Monday - Sunday, 8:30 AM - 10:30 PM",5.430396,100.319314
Subway Bertam Perdana,"11, Jalan Dagangan 9 Pusat bandar Bertam Perdana, Kepala Batas, 13200, Penang","Monday - Sunday, 7:00 AM - 10:30 PM",5.517876,100.450793
Subway Eco Borealis,"23-G Jalan Borealis 3, Pusat Komersial Borealis 14100 Bandar Cassia Penang","Monday - Sunday, 8:00 AM - 10:30 PM",5.235775,100.443824
Subway Summersky Square,"No 1-1-25 Summersky Square, Jalan Tiram 8, 11900 Bayan Lepas, Penang","Monday - Sunday, 7:00 AM - 10:30 PM",5.299543,100.267210
Subway Lam Wah Ee,"Subway Food Court Lam Hwa Ee Hospital   141, Jalan Tan Sri Teh Ewe Lim Jelutong, 11600 George Town, Pulau Pinang","Monday - Sunday, 7:30 AM - 10:00 PM",5.391520,100.303956
Subway Caltex Sungai Dua,"Subway Caltex Sg Dua Sungai Dua North Bound, PMT 10359, KM 132.5, Lebuhraya Utara Selatan Permatang Pauh, 13600 Pulau Pinang","Monday - Sunday, 8:00 AM - 10:00 PM",5.424405,100.414021
Subway Serai Wangi,"Lot 3, N0 2500, Lorong Serai Wangi 4/10, Taman Serai Wangi III &IV, Padang Serai, Kedah 09400",Monday - Sunday (8:00AM - 10:00PM),5.523597,100.544609
Subway Greentown Ipoh,"No. 5 Persiaran Greentown 4 Greentown Business Centre  30450 Ipoh, Perak, Malaysia","Monday - Sunday, 9:00 AM - 10:30 PM",4.598512,101.092992
Subway Ipoh Parade,"1st Floor, Ipoh Parade, Lot F24 & F35C, 105, Jalan Sultan Abdul Jalil, 30450 Ipoh, Perak","Monday - Sunday, 10:00 AM - 10:00 PM",4.596175,101.090191
Subway Mydin Meru,"Subway Mydin Mall Meru G-04 Mydin Wholesale Hypermarket Meru Raya, Lot PT 229142, Jalan Meru Bestari B2, Bandar Meru Raya, 30020 Jelapang, Ipoh, Perak","Monday - Sunday, 10:00 AM - 9:30 PM",4.670851,101.075181
Subway Medan Ipoh,"75, Jalan Medan Ipoh 1A,Medan Ipoh Bestari, 31400, Ipoh, Perak","Monday - Sunday, 7:00 AM - 10:30 PM",4.619899,101.116717
Subway Seri Iskandar,"No.26 Jalan PP1,Bandar Universiti, Sri Iskandar, 31750, Tronoh, Perak","Monday - Sunday, 7:00 AM - 10:30 PM",4.364381,100.977375
Subway Kerian Sentral,"G-06A, Ground Floor,Kerian Sentra Mall,Jalan Sekolah, Parit Buntar 34200 Perak","Monday - Sunday, 10:00 AM - 9:30 PM",5.127493,100.482662
Subway Kampar,"2243, Jalan Batu Sinar, Taman Bandar Baru, Kampar, Perak","Monday - Sunday, 7:00 AM - 10:30 PM",4.326192,101.145258
Subway Kubang Kerian,"1617, Bandar Baru Kubang Kerian, Kota Bahru, Kelantan","Monday - Sunday, 7:30 AM - 11:00 PM",6.099312,102.279646
Subway Kota Bharu,"Lot 211, Tingkat Bawah, Jalan Ismail, Kota Bahru, 15000, Kelantan","Monday - Sunday, 7:30 AM - 10:00 PM",6.128948,102.238194
Subway Taiping Sentral,"G-17, Ground Floor, Taiping Sentral Mall. 36, Jln Istana Larut, Taiping, Perak","Monday - Sunday, 10:00 AM - 9:30 PM",4.865819,100.731208
Subway Seri Manjung,"No.9 Ground Floor, Jalan PPMP 3/1, Pusat Perniagaan Manjung Point 3, 32040 Seri Manjung, Perak.","Monday - Sunday, 8:00 AM - 10:30 PM",4.215572,100.667505
Subway Station 18,"25G, Susuran Stesen 18,Station 18, 31650 Ipoh, Perak Darul Ridzuan.","Monday - Sunday, 8:00 AM - 10:30 PM",4.543636,101.071360
Subway Tanah Merah,"Lot 3239, Jalan Jedok, 17500 Tanah Merah, Kelantan","Monday - Sunday, 7:30 AM - 11:00 PM",5.811860,102.131137
Subway Gong Badak,"PT 35310, Dataran Tembesu,Wakaf Tembesu, 21300 Kuala Nerus, Terengganu.","Monday - Sunday, 7:30 AM - 11:00 PM",5.356132,103.096031
Subway Paya Bunga Square,"G-K11 , Paya Bunga Square, Jalan Masjid Abidin, 20200,   K.Terengganu, Terengganu, MY","Monday - Sunday, 8:00 AM - 10:00 PM",5.331021,103.136644
Subway Tanjung Malim,"No 19, Jalan Cahaya, Taman Anggerik Desa, Tanjung Malim, 35900, Perak","Monday - Sunday, 8:00 AM - 10:30 PM",3.690488,101.522399
Subway Jerteh,"Lot 176 Jalan Tuan Hitam, 22000, Jerteh, Terengganu","Monday - Sunday, 7:30 AM - 11:00 PM",5.736547,102.493726
Subway Kemaman,"PT 21078, Tingkat Bawah, Jalan Kedidi Kiri, Taman Cukai Utama, 24000 Kemaman, Terengganu","Monday - Sunday, 7:00 AM - 10:00 PM",4.222398,103.421448
Subway Dungun Town,"PT 18073, Tingkat Bawah, Pusat Perniagaan Sura Gate, 23000, Dungun, Terengganu.","Monday - Sunday, 7:30 AM - 11:00 PM",4.756545,103.418730
Subway  BHP Tunjung,"PT 1670, Lebuh Raya Tunjung-Pasir Mas, 16010 Kota Bharu,  Kelantan","Monday - Sunday, 7:30 AM - 11:00 PM",6.060378,102.228682
Subway Ipoh South Gate,No. 21 (Ground Floor) Jalan Pulai Hartamas Medan Pulai Hartamas 31300 Ipoh Perak,Monday - Sunday (8:00AM - 10:00PM),4.549662,101.117336
Subway Johor Bahru City Square,"J3-19,Johor Bahru City Square ,106-108,Jalan Wong Ah Fook,80000,JB","Monday - Sunday, 10:00 AM - 10:00PM",1.461799,103.763960
Subway Lotus's Tebrau,"G-45,No.1 Persiaran Desa Tebrau ,81100,JB,Johor","Monday - Sunday, 9:30 AM - 10:00PM",1.549935,103.795658
Subway Mall of Medini,"G32, Mall of Medini ,No 4, Lebuh Medini Utara,79200 Iskandar Puteri, Johor","Monday - Sunday, 9:00 AM - 9:00PM",1.426769,103.633781
Subway Petronas Nusa Perintis,"Lot PTD 77638, Taman Nusa Perintis, Gelang Patah, 81550, Johor","Monday - Sunday, 8:00 AM - 10:00PM",1.451255,103.595860
Subway Shell Muar,"Union Service Station (Shell Station )No.29, Jalan Bakri, 84000, Muar, Johor.","Monday - Sunday, 8:00 AM - 11:00PM",2.048881,102.570753
Subway Sutera Mall,"Lot L2-017, Sutera Mall, No. 1, Jalan Sutera Tanjung 8/4, Taman Sutera Utama, 81300 Skudai, Johor Bahru, Malaysia","Monday - Sunday, 10:30 AM - 10:30PM",1.517745,103.671095
Subway Galleria Kotaraya,"LG 33, Galleria@Kotaraya, Jalan Trus, 80000 Johor Bahru.","Monday - Sunday, 8:30 AM - 9:00PM",1.459494,103.763060
Subway Anjung Neighbourhood Centre,"Lot 11, Anjung Neighbourhood Centre, 5, Persiaran Ledang Heights, 79250 Iskandar Puteri, Johor.","Monday - Sunday, 8:30 AM - 10:00PM",1.424643,103.616775
Subway Aeon Mall Bandar Dato Onn,"AEON Mall Bandar Dato' Onn, Lot-S07, No. 3, Jalan Dato' Onn 3, Bandar Dato Onn, 81100,Johor Bahru, Johor","Sunday - Thursday, 10:00 AM – 10:00PM,Friday & Saturday, 10:00 AM – 10:30PM",1.563988,103.734467
Caltex Taman Pelangi indah,"Caltex Lot-88070, Persiaran Pelangi Indah, Tmn Pelangi Indah, 81800, Ulu Tiram, Johor","Monday - Sunday, 8:00 AM - 11:00PM",1.569918,103.800487
Subway Larkin Sentral,"Lot No. 5B-04(B), Ground Floor, Larkin Sentral Bus Terminal Building No.5,Jalan Garuda, 80350 Johor Bahru, Johor, Malaysia","Monday - Sunday, 8:00 AM - 11:00PM",1.495668,103.741777
Subway Kluang Mall,"Lot G13A & G-13B, Ground Floor, Kluang Mall, Jalan Rambutan, Bandar Kluang, 86000 Kluang, Johor, Malaysia","Monday - Sunday, 10:00 AM - 9:30PM",2.040074,103.320580
Subway Aeon Mall Kulaijaya,C12 Food Avenue Aeon Mall Kulaijaya 81000 Kulai,"Monday - Sunday, 10:00 AM - 10:00PM",1.640585,103.617096
Subway Paradigm Mall JB,GF36 & GF37 Paradgim Mall JB Jalan Sudai 81200 JB,"Monday - Sunday, 10:00 AM - 10:00PM",1.515725,103.685646
Subway Bandar Seri Alam,"No. 12, Jalan Suria, Bandar Seri Alam, 81750 Masai, Johor Bahru","Monday - Sunday, 8:00 AM - 11:00PM",1.495905,103.871291
Subway Caltex Taman Daya,"Lot 110500, Caltex Station, Jln Nipah 2, Tmn Daya, 81100, JB","Monday - Sunday, 8:00 AM - 10:00PM",1.544111,103.762347
Subway BHP Taman Perling,"BHP Perling, Lot 588, Jln Persiaran Perling, Tmn Perling, 81200,JB","Monday - Sunday, 8:00 AM – 10:00PM,Wednesday, 8:00 AM – 8:00PM",1.499539,103.682181
Subway Aeon Bukit Indah,"G12A AEON Bukit Indah SC, Jalan Indah 15/2, Taman Bukit Indah, 81200, Johor Bahru, Johor.","Monday - Sunday, 10:00 AM - 10:00PM",1.481752,103.655763
Subway Giant Hypermarket Plentong,"Lot No. R125, Giant Hypermall Plentong, No.3 Jalan Masai Lama, Mukim Plentong, 81750 Masai, Plentong, Johor.","Monday - Saturday, 10:30 AM – 10:00PM,Sunday, 10:30 AM – 9:00PM",1.528057,103.814659
Subway KSL City,"Lot LG-09, KSL City, No. 33, Jalan Seladang, Taman Abad, 80250 Johor Bahru.",Monday - Sunday (10:00AM - 10:00PM),1.485438,103.762881
Subway Taman Bukit Dahlia,"No. 14, Jalan Serangkai 18, Taman Bukit Dahlia, 81700 Pasir Gudang","Monday - Sunday, 8:00 AM - 11:00PM",1.478372,103.894322
Subway Plaza Angsana,"No.L1.16, Level 1 Plaza Angsana, Pusat Bandar Tampoi, Jalan Skudai, 81200 Johor Bahru, Johor","Monday - Sunday, 10:00 AM - 10:00PM",1.494927,103.705748
Subway Aeon Taman Universiti Shopping Centre,"LG09A, Aeon Taman Universiti, No.4, Jalan Pendidikan, Taman Universiti, 81300 Skudai, Johor.","Monday - Sunday, 10:00 AM - 10:00PM",1.542432,103.629242
Subway Senai International Airport,"Lot E9, AeroMall, Senai International Airport, 81250 Johor Bahru, Johor, Malaysia.","Monday - Sunday, 8:30 AM - 9:00PM",1.635896,103.665889
Subway Plaza Pelangi,"Lot No.101A, Level 1, Plaza Pelangi, No.2, Jalan Kuning, Taman Pelangi, 80400 Johor Bahru.","Monday - Friday, 10:30 AM – 8:00PM,Saturday & Sunday, 10:30 AM – 8:30PM",1.479993,103.765305
Subway Mount Austin Shoplot,"41, Jalan Austin Heights 3, Taman Mount Austin, 81100 Johor Bahru.","Monday - Sunday, 8:00 AM - 10:00PM",1.560592,103.780164
Subway Old Street Commercial Centre,"23, Jalan Rotan Utama, Taman Sri Jaya, 83000, Batu Pahat, Johor","Monday - Sunday, 8:00 AM - 11:00PM",1.863320,102.954377
Subway Segamat Shoplot,"115, Jalan Genuang, 85000, Segamat, Johor","Monday - Sunday, 8:00 AM - 10:00PM",2.502533,102.821669
Subway Mas Jaya Muar,"No. 28, Jalan Perniagaan Jaya, Jln Salleh, Pusat Perniagaan Mas Jaya, 84000 Muar, Johor.",Monday - Sunday (8:00AM - 10:00PM),2.068428,102.578707
Subway BHP Pagoh South,"BHPetrol R&R Pagoh Selatan, KM135 Lebuhraya Utara Selatan Arah Selatan, 84600 Muar, Johor","Monday - Sunday, 8:00 AM - 11:00PM",2.121149,102.793571
Subway Ecoworld Kota Masai Shoplot,"No 3A, Jalan Ekoperniagaan 8, Taman Kota Masai 81700 Pasir Gudang, Johor","Monday - Sunday, 8:00 AM - 11:00PM",1.485413,103.936730
Subway Petron Kluang,"Station Minyak Petron, Jalan 1, Taman Bersatu, 86000 Mukim Paloh, Kluang, Johor","Monday, 9:00 AM – 11:00PM,Tuesday - Sunday, 8:00 AM – 11:00PM",2.021031,103.309815
Subway Kota Tinggi Shoplot,"No.9, Jalan Niaga 8, 81900 Kota Tinggi, Johor","Monday - Sunday, 8:00 AM - 10:30PM",1.729398,103.903118
Subway BHP Pagoh North,"BHPetrol, Kawasan R&R Pagoh North Bound RSA, 84600 Johor",Monday - Sunday (8:00AM - 11:00PM),2.141547,102.701221
Subway Mydin Mutiara Rini,"Lot G-12, Mydin Mutiara Rini, 81300, Skudai, Johor","Monday - Sunday, 8:00 AM - 8:30 PM",1.515083,103.635457
Subway Bandar Penawar,"21, Jalan Jelutong 1, Bandar Penawar 82200 Pengerang, Johor","Monday - Sunday, 8:00 AM - 10:00PM",1.573252,104.212390
Subway Pontian,"No.12, Jalan Kota Emas 3, Pusat Perniagaan Kota Emas 82000 Pontian, Johor","Monday - Sunday, 8:00 AM - 10:30PM",1.479899,103.398970
Subway Parit Raja,"8, Jalan Universiti 2, Taman Universiti, 86400 Parit Raja, Batu Pahat, Johor","Monday - Sunday, 10:00 AM - 10:00PM",1.850495,103.075217
Subway Petronas TAR,"Lot PTB 21742, Mukim Bandar Johor Bahru, Jalan Tun Razak, 80100 Johor Bahru","Monday - Sunday, 8:30 AM - 10:30PM",1.489029,103.729270
Subway Mid Valley Southkey,"LG-004, Lower grounf floor, The Mall MID VALLEY Southkey, Mukim Plentong 80150 Johor.",Monday - Sunday (10:00AM - 10:00PM),1.501334,103.777419
Subway D'Garden BP,"No. 12 (Ground Floor), Jalan Desa Botani 1 Taman Desa Botani, 83000 Batu Pahat, Johor",Monday - Sunday (8:00AM - 10:00PM),1.867258,102.932769
Subway Plaza Merdeka,"Plaza Merdeka,  G-11 & G9(s), Grd Floor, 88 Pearl Street, 93000 Kuching, Sarawak.","Monday - Sunday, 10:00 AM - 10:00 PM",1.558561,110.344021
Subway Bintang Megamall,"Bintang Megamall, Lot 1.43 & 1.40, First Floor, Jalan Miri-Pujut, 98000 Miri, Sarawak.","Monday - Sunday, 10:00 AM - 10:00 PM",4.397048,113.993285
Subway Jalan Kulas,"Wisma Wan Abu Bakar, Groud Floor, Lot 110(SL7) Section 6 KLTD, Jalan Kulas, 93400 Kuching, Sarawak.","Monday - Sunday, 9:30 AM - 10:00 PM",1.554539,110.331635
Subway Al-Bayt Square,"Al-Bayt Square (Miri 101),  Lot3529, Grd Floor, Block 5,  Jalan Miri-Pujut, 98001 Miri, Sarawak","Monday - Sunday, 7:30 AM - 9:00 PM",4.413015,114.010416
Subway IMAGO Shopping Mall,"IMAGO Shopping Mall, Lot B-16, Basement Level, KK Times Square Phase 2, Off Coastal Highway, 88100 Kota Kinabalu, Sabah.","Monday - Sunday, 10:00 AM - 10:00 PM",5.970862,116.066354
Subway Suria Sabah Shopping Mall,"Suria Sabah Shopping Mall Lot B-11, Lower Ground Floor, 1, Jalan Tun Fuad Stephens,  88000 Kota Kinabalu, Sabah.","Monday - Sunday, 10:00 AM - 10:00 PM",5.988772,116.078046
Subway ITCC Penampang Shopping Mall,"ITCC Penampang Shopping Mall, Lot No. G-18, Ground Floor, Jalan Pintas Penampang, 89500 Kota Kinabalu, Sabah, Malaysia.","Monday - Sunday, 7:00 AM - 11:00 PM",5.910259,116.091394
Subway Emart Batu Kawa,"Unit No. 108, Emart One Stop Shopping Mall, Lot 6369, Block 225, KNLD, Jalan Batu Kawa, 93250 Kuching, Sarawak.","Monday - Sunday, 7:00 AM - 11:00 PM",1.507024,110.299260
Subway EMart Bintulu Commercial Centre,"EMart Bintulu Commercial Centre,  Ground Floor, Sublot 8632,  Jalan Rakawi Yusuf, Tanjung Batu,  97000 Bintulu, Sarawak.","Monday - Sunday, 7:00 AM - 10:00 PM",3.191092,113.046586
Subway One Arena,"One Arena, Pusat Komersil BDC, 8-A8-GF,  Jalan Datuk Chong Thien Vun, 91000 Tawau, Sabah.","Sunday - Thursday, 7:00 AM – 9:00PM,Friday & Saturday, 7:00 AM – 10:00PM",4.258803,117.918825
Subway Lido Square,"Lot 6&7, Ground Floor Lido Square Mile 3, Penampang Road, Taman Che Mei, 88300 Kota Kinabalu, Sabah","Monday - Sunday, 7:00 AM - 10:00 PM",5.943925,116.081376
Subway TT3 Plaza,"TT3 Plaza Grd Floor, Lot 3537, Sublot 36,  Tabuan Tranquility, Off Jalan Canna, 93350 Kuching.","Monday - Sunday, 7:00 AM - 9:00 PM",1.513067,110.393288
Subway Jln Tun Jugah,"No.63, Grd Floor, Lot 10208,  801-2B Jalan Tun Jugah, Kampung Tabuan Dayak, 93350 Kuching, Sarawak.","Monday - Sunday, 7:00 AM - 11:00 PM",1.527486,110.357330
Subway Permy Mall,"Permy Mall,  Lot114, Grd Floor,  Jalan Datuk Sri Joseph Balan Seling,  Bandar Baru Permy,  98000 Miri, Sarawak, Malaysia.","Monday - Sunday, 9:00 AM - 10:00 PM",4.450033,114.038751
Subway Jesselton Square,"Jesselton Square, Lot 1, No.5 Jalan Gaya,  Off Lorong Satu/ Jalan Haji Saman, 88000 Kota Kinabalu, Sabah.","Monday - Sunday, 7:00 AM - 12:00 AM",5.990394,116.079463
Subway Hann's Residence,"Hann's Residence, Lot R40 & R42, Retail Arcade, Jalan Wong King Huo, 96000 Sibu, Sarawak.","Monday - Sunday, 10:00 AM - 10:00 PM",2.286028,111.847530
Subway Plaza CKS Tuaran,"Plaza CKS Tuaran, Lot 52, Grd Floor, Block G, Kampung Tutoh, 89150 Tuaran, Sabah.","Monday - Sunday, 7:00 AM - 11:00 PM",6.188856,116.227933
Subway Kuching International Airport,"Kuching International Airport, Lot L3L10, Level 3, Departure Level, Jalan Lapangan Terbang, 93722 Kuching, Sarawak, Malaysia.",,1.486173,110.350244
Subway Centre Point Sabah,"Lot No. S1, Basement, Centre Point Sabah, No. 1, Jln Centre Point, 88000 Kota Kinabalu, Sabah","Monday - Sunday, 8:00 AM - 9:00 PM",5.978147,116.071864
Subway Servay Jaya Semporna,"Shop18, Servay Jaya Semporna, Lot 9-17, Jalan Bubul, Batu 2, 91308 Semporna, Sabah","Monday - Sunday, 7:00 AM - 9:30 PM",4.461874,118.588457
Subway The Grand SS15,"G7, The Grand Subang Jaya, Jalan SS 15/8a, Ss 15, 47500 Subang Jaya, Selangor","Monday - Sunday, 8:00 AM - 10:00 PM",3.074415,101.590297
Subway BHP Ayer Keroh,"BHP Ayer Keroh, Jalan Tun Abdul Razak, Taman Ayer Keroh Heights, 75450 Melaka","Monday - Sunday, 8:00 AM - 9:30 PM",2.252449,102.291324
Subway Caltex BSU,"PT 28807, Jalan Persiaran E1/1, Seri Pristana, 47000 Sungai Buloh, Selangor","Monday - Sunday, 8:00 AM - 10:00 PM",3.205961,101.471908
Subway Radia Bukit Jelutong,"G0-23, Radia Sales Gallery, Persiaran Arked, Bukit Jelutong, 40150 Shah Alam, Selangor","Monday - Sunday, 7:30 AM - 10:00 PM",3.101122,101.535394
Subway Kelana Jaya (KJ),"Suite 109b, Ground Floor, Office Tower, Kelana Park View, No.1, Jalan SS6/2, 47301 Petaling Jaya, Selangor","Monday - Sunday, 8:30 AM - 8:30 PM",3.100862,101.599716
Subway Mersing,"No. 345H (GF), Jalan Ismail, 86800 Mersing, Johor","Monday - Sunday, 8:00 AM - 10:00 PM",2.430028,103.840984
Subway KSL Esplanade,"G006, Ground Floor, KSL Esplanade Mall, 42500 Klang, Selangor","Monday - Sunday, 8:00 AM - 11:00 PM",2.958405,101.467045
Subway Sierra 16 Puchong,"Lot 3A-1, Sierra Fresco, Jln Sierra 10/1, Bandar 16 Sierra, 47110 Puchong, Selangor.",Monday - Sunday (8:00AM - 10:00PM),2.974426,101.655052
Subway Mydin RTC Gopeng,"G-21 & G-22, MYDIN Wholesale Hypermarket RTC Perak, 31600 Kampung Kepayang, Perak.","Monday - Sunday, 8:00 AM - 10:00 PM",4.493740,101.153194
Subway Lotus Teluk Intan,"FOL 05, LOTUS TELUK INTAN, PT 5017 Rapid Mall Seri Intan, Jalan Changkat Jong, 36000 Teluk Intan, Perak","Monday - Sunday, 9:00 AM - 9:30 PM",4.017000,101.028000
Subway Caltex Bukit Indah Ampang,"Caltex Bukit Indah, PT13887, Medan Bukit Indah, Taman Bukit Indah, 69000 Ampang, Selangor","Monday - Sunday, 8:00 AM - 10:00 PM",3.152855,101.774414
Subway ROHAS KL,"No 9, Lot G-W-1, Ground Floor, West Wing, Rohas Pure Circle, Jalan P. Ramlee, 50450 Kuala Lumpur.",Monday - Sunday (8:00AM - 10:00PM),6.406500,100.179757
Subway Shell Pulai Perdana,"Shell Sri Pulai Perdana 2, Lebuhraya Skudai-Pontian, Bandar Pulai Jaya, 81110 Johor Bahru, Johor.",Monday - Sunday (8:00AM - 10:00PM),1.567481,103.595700
Subway Taman Danau Desa,,Monday - Sunday (8:00AM - 10:00PM),3.100857,101.687222
Subway Setapak Central Mall,"Kl Festival City, Lot S-23, No 67 Jalan Taman Ibu Kota, Taman Danau Kota, Setapak, Kuala Lumpur, 53200",Monday - Sunday (10:00AM - 10:00PM),3.205267,101.720020
Subway Seremban Prima Mall,"G-04A & G-04AA Ground Floor, Seremban Prima Mall, Lot 4973 Jalan Dato' Bandar Tunggal, Seremban, Negeri Sembilan, 70000, Malaysia",Monday - Sunday (9:00AM - 10:30PM),2.720170,101.940738
Subway Sultan Ibrahim Stadium,"Lot Zone C 01-04, Stadium Sultan Ibrahim, Jalan Gelang Patah, 79200 Iskandar Puteri, Johor Bahru",Monday - Sunday (10:00AM - 10:00PM),1.481700,103.619228
Subway Golden Triangle,"29-1-64, Golden Triangle, Jalan Paya Terubong, 11900 Bayan Lepas, Pulau Pinang",Monday - Sunday (8:00AM - 9:00PM),5.333125,100.275576
Subway Batu 3 Gambang,"B 30 Jalan Kurnia Jaya 3,Batu 3, Jalan Gambang, 25150 Kuantan, Pahang Darul Makmur",Monday - Sunday (9:00AM - 10:00PM),3.782041,103.287223
Subway KIP Kota Warisan,"G13 & 13A, Kip Mall, Kota Warisan, 43900 Sepang, Selangor, Malaysia",Monday - Sunday (10:00AM - 10:00PM),2.834608,101.694666
Subway Taman Ehsan,"No 520(GF) Jalan E3/8, Tmn Ehsan, 52100 Kepong, Selangor",Monday - Sunday (8:00AM - 10:00PM),3.220409,101.622847
Lotus's Indera Mahkota,"G1, Lotus’S Indera Mahkota, Lot 144749, Lot 144746 & Lot 144045, Off Jalan Tun Razak Mukim Kuala Kuantan, Daerah Kuantan, 25200 Kuantan Pahang",Monday - Sunday (10:00AM - 10:00PM),3.827265,103.304433
Subway Taman Sri Muda,"No 40 (GF), Jalan Murni 25/61, Taman Sri Muda, 40400 Shah Alam, Selangor",Monday - Sunday (8:00AM - 10:00PM),3.032726,101.536497
Subway Pantai Batu Buruk,"Partial of Bangunan Kelab Kerajaan Pantai Batu Buruk, Jalan Pantai Batu Buruk, 20400 Kuala Terengganu, Terengganu.",Monday - Sunday (10:00AM - 10:00PM),5.324181,103.154071
Subway Kangar Jaya,"Lot PT2269, Kangar Jaya, Mukim Seriab, Kangar, 01000 Perlis",Monday - Sunday (8:00AM - 11:00PM),6.406500,100.179757
Subway Kota Laksamana,"No 46(GF) Jln KLJ, Taman Kota Laksamana Jaya, 75200 Melaka.",Monday - Sunday (8:00AM - 10:00PM),2.198930,102.230893
Subway 1st Avenue,"LG-08 1st Avenue Mall, 182 Jalan Magazine, 10300 Penang.",Monday - Sunday (10:00AM - 10:00PM),5.413310,100.331140
Subway Mid Valley KL,"1st Floor, Zone 3, Kiosk FK-05, Mid Valley Megamall,  Lingkaran Syed Putra, Mid Valley City, 59200 Kuala Lumpur",Monday - Sunday (8:00AM - 10:00PM),3.118753,101.677459
Subway Lotus Ampang,"LOTUS’S AMPANG - OL1, Jalan Pandan Prima Dataran, Pandan Indah, 55100 Kuala Lumpur",Monday - Sunday (10:00AM - 10:00PM),3.143814,101.741630
Subway The Artiz JB,"No 25(GF) Jln Setia 3/13, Tmn Setia Indah, 81100 JB",Monday - Sunday (08:00AM - 10:00PM),1.576539,103.758845
Subway Setia Tropika,"No 18 Jln Setia Tropika 1/18, Tmn Setia Tropika, 81200 JB",Monday - Sunday (08:00AM - 10:00PM),1.547172,103.715609
Subway Razak City,"Block B-G-19 Residensi Bandar Razak, No 01 Jln Razak Mansion, 57100 Sungai Besi, K.L",Monday - Sunday (08:00AM to 10:00PM),3.108465,101.706308
Subway C-Mart Changlun,"G 14, 15, 16, C- Mart @  Komplek Changloon, No 1, Pekan Changlun, Changloon,  Taman Kempas, 06010 Changlun, Kedah",Monday to Sunday (10:00AM - 10:00PM),6.435389,100.430250
Subway Aeon Cheras Selatan,"F60, First Floor, ÆON Cheras Selatan, Lebuh Utama Tun Hussein Onn, Tun Hussein Onn, Cheras, Selangor",Monday to Sunday (10:00AM - 10:00PM),3.033015,101.765206
Subway Bandar Baru Jelawat,"PT 4359 (B) Kedai Jelawat, Bandar Baru Jelawat, 16070 Bachok, Kelantan.",Monday - Sunday (08:00 AM - 10:00PM),6.011177,102.381749
Subway Lumut Indah,"No 21(GF) Jln Lumut Indah 2/1, Tmn Lumut Indah, 32200 Lumut, Perak.",Monday - Sunday (08:00AM - 10:00PM),4.208528,100.638146
Subway Cahaya Kota Puteri,"No 07(GF) Jln Kota 2, Taman Cahaya Kota Puteri, 81750 Masai, Johor.",Monday to Sunday (08:00AM - 10:00PM),1.494290,103.843649
Subway Kuala Krai,"No 18(GF) Jln lf 1, Laman Firdaus, Bandar Baru Kuala Krai, 18000 Kuala Krai, Kelantan.",Monday to Sunday (08:00AM - 10:00PM),5.494022,102.223109
Taman Nusa Bestari,"No 26(GF) Jln Jati 1, Taman Nusa Bestari, 81200 Skudai, Johor.",Monday - Sunday (08:00AM - 10:00PM),1.499214,103.655946
Subway Kuala Berang,"No 292(GF) Jln Besar Kuala Berang, 21700 Kuala Berang, Hulu Terengganu, Terengganu.",Monday - Sunday (08:00AM - 10:00PM),5.072830,103.010660
Subway Sg Udang,"No 06(GF) Jln Kerambit 1A, Bandar Baru, 76450 Sg. Udang, Melaka.",Monday - Sunday (08:00AM - 10:00PM),2.290353,102.138712
Subway Kiara Bay,"""Lot G-22, The Beat Kiara Bay Kepong Metropolitan Park,Jalan Lingkaran Tengah 52100 Kuala Lumpur.""",Monday - Sunday (10:00AM - 10:00PM),3.226999,101.650259
Subway Mahkota Square Kuantan,"""G-10, Tingkat Bawah, Mahkota Square, Jalan Mahkota  25000 Kuantan, Pahang.""",Monday - Sunday (08:00AM - 10:00PM),3.806067,103.327962
Subway Putra Ampang,"No 46-G, Jalan Bunga Tanjung 9B, Taman Putra, Ampang 68000, Selangor",Monday - Sunday (08:00AM - 10:00PM),3.120457,101.762861
Subway Sunggala Gateway,"PD Sunggala Gatewa3 No 4, Lot 2031, Taman Sri Rusa Jaya,71050 Port Dickson, Negeri Sembilan",Monday - Sunday (09:00AM - 10:00PM),2.476273,101.855712
Subway Sunway Carnival,"LG-31, Lower Ground Floor, Sunway Carnival Mall, 3068, Jalan Todak, Pusat Bandar Seberang Jaya, 13700 Perai, Pulau Pinang",Monday - Sunday (9:00AM - 10:00PM),5.399101,100.397841
Subway Bangi Seksyen 7,"No.19-G, Jalan 7/7A, Seksyen 7, Bandar Baru Bangi, 43650 Selangor",Monday - Sunday (08:00AM - 10:00PM),2.969764,101.773828
